City_ID,City,Lat,Lng,Max Temp,Humidity,Cloudiness,Wind Speed,Country,Date
0,edinburgh of the seven seas,-37.0676,-12.3116,17.11,92,100,13.87,SH,1733103707
1,papatowai,-46.5619,169.4708,16.87,61,100,3.91,NZ,1733103709
2,ribeira grande,38.5167,-28.7,17.1,90,49,1.34,PT,1733103710
3,adamstown,-25.066,-130.1015,23.28,77,86,6.18,PN,1733103685
4,tiksi,71.6872,128.8694,-24.87,100,70,1.92,RU,1733103683
5,luanda,-8.8368,13.2343,26.0,89,75,1.03,AO,1733103646
6,labrador city,52.9463,-66.9114,-6.57,84,100,6.69,CA,1733103715
7,badger,64.8,-147.5333,-31.39,75,0,2.06,US,1733103716
8,nouadhibou,20.931,-17.0347,21.99,49,95,3.09,MR,1733103717
9,yermakovskoye,53.2831,92.4003,-6.81,96,100,1.79,RU,1733103718
10,grytviken,-54.2811,-36.5092,4.57,94,100,4.75,GS,1733103697
11,katsuura,35.1333,140.3,14.79,69,45,2.5,JP,1733103721
12,waitangi,-43.9535,-176.5597,14.34,75,82,4.92,NZ,1733103722
13,balabac,7.9868,117.0645,28.76,71,99,1.36,PH,1733103723
14,kodiak,57.79,-152.4072,1.73,87,100,4.12,US,1733103725
15,newman,37.3138,-121.0208,12.8,78,20,2.2,US,1733103726
16,avarua,-21.2078,-159.775,26.03,78,100,6.17,CK,1733103727
17,gaspe,48.8334,-64.4819,-3.88,80,0,2.57,CA,1733103728
18,labasa,-16.4167,179.3833,29.11,67,42,3.01,FJ,1733103729
19,thompson,55.7435,-97.8558,-14.91,78,75,1.54,CA,1733103731
20,machico,32.7,-16.7667,18.47,82,75,5.66,PT,1733103732
21,olonkinbyen,70.9221,-8.7187,-10.46,76,100,13.63,SJ,1733103733
22,talnakh,69.4865,88.3972,-8.7,91,100,10.18,RU,1733103734
23,zhanibek,49.4167,46.85,-1.79,92,57,3.17,KZ,1733103736
24,bethel,41.3712,-73.414,-3.29,66,0,0.0,US,1733103737
25,enewetak,11.3474,162.3373,28.05,82,33,10.59,MH,1733103738
26,ushuaia,-54.8,-68.3,4.81,70,40,9.77,AR,1733103644
27,boma,11.7117,4.2472,22.07,24,61,3.84,NG,1733103741
28,blackmans bay,-43.0167,147.3167,22.07,73,56,3.37,AU,1733103742
29,buka,40.8108,69.1986,4.02,72,7,1.69,UZ,1733103743
30,wailua homesteads,22.0669,-159.378,24.16,74,40,4.63,US,1733103744
31,port-aux-francais,-49.35,70.2167,3.35,78,97,3.12,TF,1733103745
32,eastman,32.1977,-83.1777,0.9,93,0,0.0,US,1733103747
33,san ramon,37.7799,-121.978,13.13,57,0,3.09,US,1733103748
34,barcelos,41.5388,-8.6151,13.37,95,100,0.52,PT,1733103749
35,iskateley,67.6803,53.1512,-4.47,93,98,6.16,RU,1733103750
36,margaret river,-33.95,115.0667,15.77,63,97,7.73,AU,1733103752
37,coyhaique,-45.5752,-72.0662,3.71,89,92,3.02,CL,1733103552
38,sirpur,19.4833,79.6,22.41,89,100,2.38,IN,1733103754
39,puerto natales,-51.7236,-72.4875,4.48,91,100,3.42,CL,1733103755
40,colonia,50.9333,6.95,5.78,84,100,3.6,DE,1733103484
41,lihue,21.9789,-159.3672,26.06,68,40,4.63,US,1733103758
42,ceres,37.5949,-120.9577,13.64,73,20,2.06,US,1733103759
43,jamestown,42.097,-79.2353,-4.99,95,75,6.17,US,1733103760
44,hithadhoo,-0.6,73.0833,27.61,81,100,9.81,MV,1733103761
45,tolanaro,-25.0319,46.9987,23.04,83,75,1.03,MG,1733103763
46,yellowknife,62.456,-114.3525,-20.3,93,100,2.06,CA,1733103764
47,qaqortoq,60.7167,-46.0333,-0.39,99,100,3.35,GL,1733103765
48,matias romero,16.8833,-95.0333,21.63,93,6,5.3,MX,1733103766
49,lompoc,34.6391,-120.4579,13.73,75,0,2.06,US,1733103767
50,sukhobezvodnoye,57.0491,44.8891,0.57,98,100,2.55,RU,1733103769
51,mammoth lakes,37.6485,-118.9721,-0.53,86,100,0.0,US,1733103770
52,nemuro,43.3236,145.575,4.13,54,19,2.28,JP,1733103739
53,port alfred,-33.5906,26.891,15.66,94,100,0.89,ZA,1733103774
54,dudinka,69.4058,86.1778,-9.58,91,100,9.82,RU,1733103775
55,ust'-ilimsk,58.0006,102.6619,-30.03,99,5,1.49,RU,1733103776
56,bredasdorp,-34.5322,20.0403,15.29,86,3,1.43,ZA,1733103777
57,khandyga,62.6667,135.6,-23.83,93,100,0.26,RU,1733103779
58,stanley,54.868,-1.6985,7.38,93,40,2.57,GB,1733103780
59,qaryat suluq,31.6682,20.2521,16.05,71,93,3.27,LY,1733103781
60,uturoa,-16.7333,-151.4333,28.32,70,96,3.16,PF,1733103782
61,leava,-14.3,-178.1667,28.32,75,99,3.54,WF,1733103520
62,saipan,15.1355,145.701,29.8,80,40,7.2,MP,1733103629
63,zheleznogorsk-ilimskiy,56.5768,104.1217,-33.92,100,31,1.26,RU,1733103786
64,hermanus,-34.4187,19.2345,14.33,83,8,1.33,ZA,1733103680
65,lensk,60.7253,114.9278,-25.9,95,100,1.4,RU,1733103788
66,holualoa,19.6228,-155.9522,25.23,65,0,3.6,US,1733103790
67,mejit,10.2753,170.8646,27.74,78,39,9.22,MH,1733103791
68,mongo,12.1844,18.693,18.84,22,41,2.44,TD,1733103792
69,tbeng meanchey,13.8167,104.9667,27.04,60,56,0.74,KH,1733103794
70,new norfolk,-42.7826,147.0587,16.55,76,100,2.59,AU,1733103796
71,madera,37.1666,-119.8343,12.37,67,15,0.88,US,1733103797
72,san patricio,28.017,-97.5169,18.97,75,100,5.23,US,1733103799
73,petropavlovsk-kamchatsky,53.0452,158.6483,-0.67,100,100,1.0,RU,1733103801
74,irkutsk,52.2978,104.2964,-20.57,84,0,1.0,RU,1733103393
75,invercargill,-46.4,168.35,18.34,71,100,2.68,NZ,1733103604
76,torquay,50.4638,-3.5143,9.28,91,12,1.34,GB,1733103805
77,whitehorse,60.7161,-135.0538,-16.81,77,100,4.12,CA,1733103806
78,nova sintra,14.8667,-24.7167,25.96,64,100,7.42,CV,1733103807
79,hadibu,12.65,54.0333,24.74,70,31,4.14,YE,1733103810
80,pangai,-19.8,-174.35,29.06,84,75,4.12,TO,1733103811
81,chibougamau,49.9168,-74.3659,-7.21,93,100,2.06,CA,1733103812
82,port mathurin,-19.6833,63.4167,24.53,75,30,6.47,MU,1733103813
83,yuzhno-kurilsk,44.0306,145.8556,4.43,59,13,2.47,RU,1733103815
84,remire-montjoly,4.9167,-52.2667,26.02,94,75,2.57,GF,1733103816
85,castillos,-34.1667,-53.8333,18.0,95,100,6.91,UY,1733103817
86,ilulissat,69.2167,-51.1,-13.99,61,100,1.54,GL,1733103818
87,cherdakly,54.3594,48.845,0.97,86,100,4.0,RU,1733103819
88,west island,-12.1568,96.8225,29.99,79,75,2.06,CC,1733103821
89,sitka,57.0531,-135.33,5.94,81,100,2.06,US,1733103822
90,reggane,26.7158,0.1714,17.16,21,90,4.43,DZ,1733103823
91,xixiang,35.1628,112.865,9.95,32,7,2.64,CN,1733103824
92,ta'izz,13.5,44.0,17.11,80,3,0.4,YE,1733103826
93,ceeldheer,3.8488,47.1806,24.93,73,1,6.48,SO,1733103827
94,east london,-33.0153,27.9116,19.04,76,100,3.53,ZA,1733103828
95,nikolayevsk-on-amure,53.1406,140.73,-6.5,93,83,2.19,RU,1733103829
96,vejle,55.7093,9.5357,5.42,94,100,6.19,DK,1733103832
97,nuuk,64.1835,-51.7216,-0.66,74,100,3.6,GL,1733103555
98,benguela,-12.5763,13.4055,24.84,83,96,2.16,AO,1733103834
99,ar ruways,24.1103,52.7306,20.05,60,0,7.06,AE,1733103836
100,isafjordur,66.0755,-23.124,-11.63,66,41,4.2,IS,1733103837
101,manicore,-5.8092,-61.3003,28.9,51,92,1.28,BR,1733103838
102,afif,23.9065,42.9172,16.2,51,0,3.27,SA,1733103839
103,ghadamis,30.1337,9.5007,12.21,58,0,3.09,LY,1733103841
104,beckley,37.7782,-81.1882,-4.03,89,8,1.7,US,1733103842
105,albany,42.6001,-73.9662,-3.98,72,20,0.45,US,1733103843
106,sadovoye,47.7764,44.5089,-1.74,91,31,1.31,RU,1733103844
107,klyuchi,52.2667,79.1667,-8.83,93,100,3.16,RU,1733103845
108,bilibino,68.0546,166.4372,-17.64,95,65,1.28,RU,1733103847
109,uusikaupunki,60.8004,21.4084,4.76,89,83,8.95,FI,1733103849
110,haiku-pauwela,20.9219,-156.3051,25.12,68,20,8.94,US,1733103851
111,gorontalo,0.5412,123.0595,29.6,66,100,1.63,ID,1733103748
112,ust-nera,64.5667,143.2,-17.23,99,100,0.83,RU,1733103855
113,cidreira,-30.1811,-50.2056,21.3,98,100,3.68,BR,1733103857
114,ubari,26.5921,12.7805,11.29,42,2,1.4,LY,1733103859
115,hamilton,39.1834,-84.5333,-3.18,60,20,3.6,US,1733103284
116,punta arenas,-53.15,-70.9167,6.06,75,75,10.29,CL,1733103582
117,vorgashor,67.5833,63.95,-10.5,94,100,7.79,RU,1733103864
118,ta`u,-14.2336,-169.5144,28.13,73,100,6.46,AS,1733103865
119,paka,4.6374,103.4368,25.96,89,40,0.0,MY,1733103866
120,touros,-5.1989,-35.4608,25.85,84,11,5.33,BR,1733103868
121,wotho,10.1657,166.0102,28.05,80,12,10.42,MH,1733103869
122,stephenville,32.2207,-98.2023,7.36,67,1,0.45,US,1733103870
123,northam,51.0333,-4.2167,10.34,91,13,9.56,GB,1733103871
124,college,64.8569,-147.8028,-31.4,72,75,2.06,US,1733103872
125,ongjin,37.9347,125.3619,6.95,75,61,9.26,KP,1733103874
126,praia da vitoria,38.7333,-27.0667,18.14,94,75,0.92,PT,1733103875
127,bikenibeu village,1.3673,173.1241,31.98,66,75,5.66,KI,1733103876
128,wenling,28.3669,121.36,17.1,66,54,0.14,CN,1733103877
129,alice springs,-23.7,133.8833,26.75,69,100,7.72,AU,1733103879
130,fort bragg,35.139,-79.006,3.25,76,0,0.0,US,1733103880
131,pucheng,27.9233,118.5333,16.7,54,0,0.49,CN,1733103881
132,hohhot,40.8106,111.6522,-9.84,44,0,2.0,CN,1733103882
133,kingston,17.997,-76.7936,27.53,83,20,5.14,JM,1733103883
134,geraldton,-28.7667,114.6,22.23,53,75,6.69,AU,1733103885
135,puntarenas,9.9763,-84.8384,25.84,81,100,1.82,CR,1733103886
136,constantia,44.1833,28.65,4.38,74,100,7.65,RO,1733103887
137,brookings,44.3114,-96.7984,-7.1,80,100,2.06,US,1733103888
138,nuku'alofa,-21.1333,-175.2,28.19,89,75,3.09,TO,1733103890
139,laguna,38.421,-121.4238,11.79,74,0,2.06,US,1733103891
140,iqaluit,63.7506,-68.5145,-10.15,62,40,5.66,CA,1733103892
141,pacific grove,36.6177,-121.9166,14.09,73,0,0.45,US,1733103893
142,midelt,32.6852,-4.7451,10.64,54,23,2.19,MA,1733103858
143,portland,45.5234,-122.6762,3.83,78,20,5.36,US,1733103896
144,menongue,-14.6585,17.691,17.38,83,83,1.67,AO,1733103897
145,howrah,22.5892,88.3103,21.0,73,75,2.06,IN,1733103898
146,tofol,5.3248,163.0078,31.88,66,75,1.03,FM,1733103899
147,antofagasta,-23.65,-70.4,16.6,82,100,2.22,CL,1733103901
148,vilyuchinsk,52.9306,158.4028,0.15,98,100,2.7,RU,1733103902
149,barah,13.7,30.3667,15.9,24,31,4.42,SD,1733103903
150,corner brook,48.9667,-57.9484,0.89,71,100,6.54,CA,1733103904
151,nowshahr,36.649,51.496,8.97,81,40,1.03,IR,1733103906
152,happy valley-goose bay,53.3168,-60.3315,-1.83,80,75,7.72,CA,1733103907
153,owase,34.0667,136.2,14.65,50,0,1.28,JP,1733103875
154,vila velha,-20.3297,-40.2925,24.97,88,100,1.03,BR,1733103909
155,fallon,39.4735,-118.7774,3.93,48,100,1.54,US,1733103911
156,cassilandia,-19.1133,-51.7342,24.17,88,100,2.27,BR,1733103912
157,port lincoln,-34.7333,135.8667,25.32,57,99,9.85,AU,1733103913
158,odda,60.0691,6.5457,5.52,100,100,3.79,NO,1733103915
159,alegrete,-29.7831,-55.7919,21.67,95,100,5.99,BR,1733103917
160,arraias,-12.9288,-46.9437,20.96,93,100,1.25,BR,1733103919
161,maroantsetra,-15.4333,49.7333,23.98,87,100,1.03,MG,1733103920
162,el calafate,-50.3408,-72.2768,6.46,66,14,6.36,AR,1733103921
163,hojo,33.9766,132.7777,14.96,67,20,1.54,JP,1733103924
164,alotau,-10.3069,150.4462,32.29,59,52,3.14,PG,1733103925
165,mangai,-4.05,19.5333,20.79,98,100,0.69,CD,1733103681
166,mount pearl,47.5166,-52.7813,-0.01,89,20,5.14,CA,1733103927
167,kaduy,59.2,37.15,1.97,96,100,3.76,RU,1733103929
168,rudnya,54.947,31.0934,-1.72,98,74,3.04,RU,1733103930
169,ardakan,32.31,54.0175,3.03,42,0,2.73,IR,1733103931
170,tura,25.5198,90.2201,18.72,74,99,0.85,IN,1733103932
171,kerikeri,-35.2268,173.9474,20.73,57,14,3.53,NZ,1733103934
172,pendleton,45.6721,-118.7886,0.22,91,96,0.45,US,1733103935
173,znin,52.8496,17.7199,-1.62,99,0,3.22,PL,1733103936
174,anadyr,64.75,177.4833,-5.72,93,100,6.0,RU,1733103937
175,novotroitskaya,45.3267,41.5253,-0.3,82,50,5.38,RU,1733103938
176,verkhov'ye,52.8119,37.2425,-0.05,92,100,3.41,RU,1733103940
177,sao felix do xingu,-6.6447,-51.995,22.62,98,99,0.83,BR,1733103876
178,coquimbo,-29.9533,-71.3436,14.43,77,0,3.09,CL,1733103720
179,puerto ayora,-0.7393,-90.3518,21.28,89,77,3.55,EC,1733103943
180,tanjung pandan,-2.75,107.65,28.74,74,100,3.84,ID,1733103945
181,hovd,48.0056,91.6419,-11.32,84,89,0.52,MN,1733103947
182,fortaleza,-3.7227,-38.5247,27.07,78,40,3.6,BR,1733103948
183,carnarvon,-24.8667,113.6333,22.63,59,6,7.41,AU,1733103949
184,maun,-19.9833,23.4167,20.98,32,0,1.54,BW,1733103788
185,lebu,-37.6167,-73.65,11.47,87,18,5.46,CL,1733103952
186,kruisfontein,-34.0033,24.7314,14.15,86,40,2.78,ZA,1733103953
187,karratha,-20.7377,116.8463,33.91,30,100,6.13,AU,1733103954
188,spearfish,44.4908,-103.8594,-5.61,70,0,3.6,US,1733103956
189,vera,-29.4593,-60.2126,18.62,80,100,6.7,AR,1733103958
190,port elizabeth,-33.918,25.5701,15.73,98,0,2.06,ZA,1733103959
191,lahaina,20.8783,-156.6825,26.16,76,19,2.64,US,1733103962
192,novodvinsk,64.4165,40.8122,1.86,94,100,6.15,RU,1733103963
193,zhalantun,48.0,122.7167,-17.15,76,9,3.8,CN,1733103964
194,kirkwall,58.9848,-2.9587,6.03,81,75,12.35,GB,1733103965
195,chernyshevskiy,63.0128,112.4714,-38.63,100,40,0.96,RU,1733103967
196,yunguyo,-16.25,-69.0833,9.22,66,100,4.07,PE,1733103968
197,urumqi,43.801,87.6005,-5.47,93,75,2.0,CN,1733103969
198,kolonia,50.9333,6.95,5.78,84,100,3.6,DE,1733103842
199,raja,8.4596,25.678,19.48,25,5,1.98,SS,1733103972
200,saint-pierre,-21.3393,55.4781,23.82,64,90,3.09,RE,1733103973
201,igarka,67.4667,86.5833,-9.44,93,100,8.66,RU,1733103974
202,crateus,-5.1783,-40.6775,27.58,53,56,3.73,BR,1733103975
203,male,4.1748,73.5089,28.97,74,20,9.26,MV,1733103557
204,pisco,-13.7,-76.2167,20.03,83,0,6.69,PE,1733103978
205,lewiston orchards,46.3804,-116.9754,1.05,85,0,3.6,US,1733103979
206,jiayuguan,39.8167,98.3,-3.17,39,100,0.72,CN,1733103748
207,zaozersk,69.4005,32.4476,-5.04,96,100,5.77,RU,1733103981
208,wellington,-41.2866,174.7756,20.81,60,99,11.32,NZ,1733103596
209,sao joao da barra,-21.6403,-41.0511,23.62,92,3,2.77,BR,1733103984
210,bah,26.87,78.5975,15.35,41,0,1.12,IN,1733103716
211,georgetown,5.4112,100.3354,26.79,74,20,1.54,MY,1733103986
212,quellon,-43.1167,-73.6167,9.42,65,55,4.72,CL,1733103987
213,paracuru,-3.41,-39.0306,26.19,79,100,5.68,BR,1733103989
214,quepos,9.4236,-84.1652,25.58,90,100,0.96,CR,1733103990
215,anar darah,32.7587,61.654,1.73,76,2,4.14,AF,1733103991
216,san antonio de pale,-1.4014,5.6325,25.86,85,94,3.04,GQ,1733103992
217,usinsk,65.9939,57.5281,-9.42,96,100,5.33,RU,1733103994
218,sioux falls,43.55,-96.7003,-4.08,54,100,1.54,US,1733103995
219,st. john's,47.5649,-52.7093,1.17,87,20,5.14,CA,1733103996
220,tamanrasset,22.785,5.5228,12.52,24,48,0.94,DZ,1733103997
221,ciudad bolivar,8.1222,-63.5497,28.03,63,89,6.3,VE,1733103998
222,ulety,51.3572,112.4849,-18.86,89,29,1.02,RU,1733104000
223,lubang,13.8584,120.124,27.57,81,100,7.99,PH,1733104001
224,aasiaat,68.7098,-52.8699,-18.64,96,100,1.78,GL,1733104002
225,yigo village,13.5361,144.8886,29.45,76,75,8.23,GU,1733104003
226,vadso,70.0744,29.7487,-2.91,93,100,7.2,NO,1733104005
227,kotlas,61.2611,46.6556,2.07,99,100,4.19,RU,1733103872
228,morant bay,17.8815,-76.4093,25.89,89,98,4.22,JM,1733103975
229,villa hidalgo,21.6667,-102.6,21.43,20,0,2.78,MX,1733104008
230,kapa'a,22.0752,-159.319,25.19,72,40,4.63,US,1733104009
231,cadale,2.7603,46.3222,25.69,75,44,7.08,SO,1733104011
232,tazovsky,67.4667,78.7,-12.18,96,100,3.71,RU,1733104012
233,maffra,-37.9667,146.9833,28.11,37,90,1.93,AU,1733103940
234,songea,-10.6833,35.65,17.34,83,99,1.14,TZ,1733104014
235,pariaman,-0.619,100.12,23.03,91,100,3.18,ID,1733104016
236,azemmour,33.2895,-8.3425,17.87,50,50,1.85,MA,1733104017
237,greeneville,36.1632,-82.831,0.33,79,46,1.79,US,1733104018
238,longyearbyen,78.2186,15.6401,-12.09,67,40,1.54,SJ,1733104019
239,naze,28.3667,129.4833,21.51,53,23,2.69,JP,1733104009
240,bondoukou,8.0333,-2.8,22.76,35,0,0.91,CI,1733104022
241,clarksville,36.5298,-87.3595,-0.08,63,0,3.09,US,1733104023
242,shingu,33.7333,135.9833,16.28,49,0,0.67,JP,1733103970
243,saint croix,17.7397,-64.7388,25.53,87,20,2.57,VI,1733104025
244,ndibene dahra,15.3338,-15.4766,22.08,17,100,4.21,SN,1733104026
245,morsi,21.3392,78.0131,20.83,47,100,2.03,IN,1733103989
246,mitu,1.1983,-70.1733,22.02,98,95,0.22,CO,1733103908
247,tralee,52.2704,-9.7026,8.33,73,100,7.62,IE,1733104030
248,nar'yan-mar,67.6713,53.087,-4.58,93,98,6.18,RU,1733104031
249,piacabucu,-10.4056,-36.4344,25.07,87,10,5.13,BR,1733104033
250,aljezur,37.3191,-8.8033,15.6,93,70,4.08,PT,1733104034
251,sechura,-5.5569,-80.8222,20.32,83,14,6.84,PE,1733104036
252,dwarka,22.2394,68.9678,23.55,43,0,4.33,IN,1733104024
253,nago,26.5881,127.9761,21.83,54,22,3.43,JP,1733103789
254,ad-damazin,11.7891,34.3592,22.51,27,52,2.6,SD,1733104039
255,mandalgovi,45.7625,106.2708,-11.82,36,0,5.5,MN,1733103988
256,weno,7.4515,151.8468,28.7,77,26,6.83,FM,1733104042
257,fort st. john,56.2499,-120.8529,-21.06,77,100,3.6,CA,1733104043
258,aberdeen,57.1437,-2.0981,8.27,100,100,5.66,GB,1733104044
259,california,38.3004,-76.5074,3.63,64,100,4.02,US,1733103765
260,waingapu,-9.6567,120.2641,31.09,65,90,4.67,ID,1733104047
261,berdigestyakh,62.0989,126.6992,-24.7,97,100,2.36,RU,1733104049
262,codrington,-38.2667,141.9667,25.69,45,72,6.14,AU,1733104050
263,makokou,0.5738,12.8642,21.72,92,23,0.57,GA,1733104052
264,zheleznodorozhnyy,55.7503,38.0042,0.05,86,100,3.32,RU,1733104053
265,kita,13.0349,-9.4895,19.49,24,66,1.31,ML,1733104054
266,camrose,53.0168,-112.8353,-16.72,74,100,4.24,CA,1733103839
267,tucurui,-3.7661,-49.6725,24.42,82,66,1.16,BR,1733104057
268,sur,22.5667,59.5289,24.16,58,0,6.2,OM,1733104058
269,metlili chaamba,32.2667,3.6333,11.52,50,0,1.54,DZ,1733104059
270,queenstown,-31.8976,26.8753,13.99,92,98,1.85,ZA,1733104060
271,atafu village,-8.5421,-172.5159,28.72,73,22,6.5,TK,1733103692
272,podgornoye,51.735,39.1496,0.12,86,100,4.0,RU,1733104063
273,port douglas,-16.4833,145.4667,29.51,72,95,3.09,AU,1733104065
274,gadzhiyevo,69.2551,33.3362,-4.23,96,100,6.24,RU,1733104067
275,klaksvik,62.2266,-6.589,-0.04,73,100,12.9,FO,1733104071
276,narrabri,-30.3167,149.7833,33.62,41,0,0.45,AU,1733104072
277,fortuna,40.5982,-124.1573,9.13,87,0,3.09,US,1733104073
278,bay roberts,47.5999,-53.2648,0.82,94,25,2.24,CA,1733104074
279,qui nhon,13.7667,109.2333,24.58,80,30,3.41,VN,1733103727
280,jose pedro varela,-33.45,-54.5333,17.67,92,100,9.13,UY,1733104077
281,margate,51.3813,1.3862,11.0,89,100,0.45,GB,1733104078
282,minas de marcona,-15.2119,-75.1103,15.42,87,100,5.35,PE,1733103881
283,marquette,46.5333,-87.6335,-3.95,86,43,4.02,US,1733104081
284,afaahiti,-17.75,-149.2833,26.44,80,80,5.56,PF,1733104082
285,melfort,52.8667,-104.6177,-22.93,100,100,2.57,CA,1733104083
286,uxbridge,42.0773,-71.6295,-3.28,68,6,2.19,US,1733104084
287,batar,46.7,21.8167,2.34,85,2,1.73,RO,1733104085
288,sandnessjoen,66.0217,12.6316,2.56,99,100,21.85,NO,1733104087
289,yanykurgan,43.915,67.2481,5.36,73,100,2.93,KZ,1733104088
290,pocao de pedras,-4.6667,-44.85,26.94,67,81,3.32,BR,1733104089
291,bukama,-9.2,25.85,19.65,99,95,0.6,CD,1733104090
292,along,28.1667,94.7667,11.82,59,0,0.27,IN,1733104092
293,port augusta,-32.5,137.7667,21.01,68,100,5.01,AU,1733104093
294,itaberai,-16.0203,-49.8103,20.98,92,100,1.7,BR,1733104094
295,darwin,-12.4611,130.8418,31.99,70,75,4.12,AU,1733104096
296,torres,-29.3353,-49.7269,22.7,89,100,3.27,BR,1733104099
297,nezhinka,51.7676,55.3694,-1.91,93,100,2.0,RU,1733104104
298,pemangkat,1.1667,108.9667,27.99,78,100,3.33,ID,1733104106
299,kolonia town,6.964,158.206,32.0,70,100,4.12,FM,1733104107
300,paphos,34.7667,32.4167,11.88,82,100,3.09,CY,1733104108
301,saynshand,44.8824,110.1163,-10.14,31,0,4.42,MN,1733104110
302,wamba,8.9333,8.6,21.35,35,68,1.31,NG,1733104111
303,namtsy,62.7161,129.6658,-25.51,96,100,0.86,RU,1733104112
304,bamboo flat,11.7,92.7167,28.05,78,40,1.03,IN,1733104113
305,quarai,-30.3875,-56.4514,19.05,95,100,2.86,BR,1733104115
306,hailey,43.5196,-114.3153,-0.08,69,0,0.0,US,1733104116
307,saint-philippe,-21.3585,55.7679,23.8,83,87,4.4,RE,1733104117
308,nishinoomote,30.7333,131.0,19.31,68,20,1.54,JP,1733104118
309,bushehr,28.9684,50.8385,15.05,63,0,3.09,IR,1733104119
310,white marsh,39.3837,-76.4322,0.4,71,40,1.79,US,1733104121
311,antsiranana,-12.2787,49.2917,23.33,91,22,1.98,MG,1733104122
312,flying fish cove,-10.4217,105.6791,28.08,73,14,2.68,CX,1733104123
313,tongliao,43.6125,122.2653,-7.16,41,0,6.3,CN,1733104124
314,hasaki,35.7333,140.8333,15.47,63,91,6.65,JP,1733103947
315,constitucion,-35.3333,-72.4167,11.3,82,0,6.44,CL,1733104127
316,rute,37.3269,-4.3683,14.71,56,100,1.94,ES,1733104128
317,kem',64.9555,34.5793,4.75,90,100,7.71,RU,1733104129
318,datong,40.0936,113.2914,-6.81,26,0,2.49,CN,1733103952
319,gandorhun,7.5,-11.8333,23.64,89,7,0.94,SL,1733104132
320,lubny,50.0163,32.9969,-1.61,86,23,0.59,UA,1733104133
321,kudat,6.8837,116.8477,29.96,79,20,2.24,MY,1733104134
322,penzance,50.1186,-5.5371,10.38,75,9,11.73,GB,1733104135
323,port blair,11.6667,92.75,28.02,78,40,1.03,IN,1733103962
324,ilhabela,-23.7781,-45.3581,22.67,95,72,4.59,BR,1733104138
325,adrar,20.5022,-10.0711,18.14,18,100,4.43,MR,1733104139
326,puerto armuelles,8.2833,-82.8667,26.16,85,100,0.45,PA,1733104140
327,suining,30.508,105.5733,12.95,61,17,1.51,CN,1733104141
328,al jumum,21.6169,39.6981,21.77,66,0,1.66,SA,1733104143
329,sosnovo-ozerskoye,52.5249,111.5418,-25.79,95,26,0.72,RU,1733104144
330,luderitz,-26.6481,15.1594,16.84,61,0,8.67,NA,1733104145
331,udachny,66.4167,112.4,-32.35,94,82,2.58,RU,1733104146
332,callao,-12.0667,-77.15,19.16,88,75,5.66,PE,1733104148
333,malvan,16.0667,73.4667,25.44,65,100,2.64,IN,1733104149
334,ad dabbah,18.05,30.95,14.96,37,4,4.17,SD,1733104151
335,sumbe,-11.2061,13.8437,24.91,89,95,1.87,AO,1733104153
336,patterson,37.4716,-121.1297,12.51,80,17,2.89,US,1733104154
337,al jawf,29.5,38.75,9.92,54,23,1.39,SA,1733104156
338,arraial do cabo,-22.9661,-42.0278,23.16,92,5,7.38,BR,1733104157
339,eirunepe,-6.6603,-69.8736,25.62,76,96,0.7,BR,1733104160
340,kharkhorin,47.1975,102.8238,-7.76,52,0,2.03,MN,1733103989
341,sabang,5.8933,95.3214,27.54,75,100,3.03,ID,1733104162
342,karwar,14.8,74.1333,26.63,67,100,1.71,IN,1733104163
343,dryden,49.7833,-92.7503,-8.84,86,100,2.57,CA,1733104164
344,kimbe,-5.5502,150.1429,30.18,71,76,2.49,PG,1733104166
345,zhangye,38.9342,100.4517,-5.56,58,100,1.57,CN,1733104167
346,whangarei,-35.7317,174.3239,23.71,47,21,3.29,NZ,1733104168
347,corfu,39.62,19.9197,8.88,93,75,1.03,GR,1733104169
348,markapur,15.7333,79.2833,23.31,94,100,4.14,IN,1733104171
349,teofilo otoni,-17.8575,-41.5053,21.6,98,100,1.35,BR,1733104172
350,malakanagiri,18.35,81.9,22.46,89,100,1.59,IN,1733104173
351,kudahuvadhoo,2.6708,72.8944,28.2,75,23,8.76,MV,1733104174
352,iaciara,-14.0958,-46.6317,21.32,96,95,0.34,BR,1733104176
353,novoazovs'k,47.1139,38.086,1.47,83,37,6.8,UA,1733104177
354,graaff-reinet,-32.2522,24.5308,14.4,82,100,1.23,ZA,1733104178
355,vilhena,-12.7406,-60.1458,21.14,94,67,1.81,BR,1733104179
356,rabo de peixe,37.8,-25.5833,17.77,99,20,3.09,PT,1733104182
357,kayangel,8.0823,134.7173,29.25,77,55,8.17,PW,1733104184
358,trebon,49.0036,14.7707,-0.5,96,8,1.67,CZ,1733104186
359,raahe,64.6833,24.4833,5.47,93,100,15.78,FI,1733104187
360,i-n-salah,27.1935,2.4607,15.37,32,100,5.1,DZ,1733104189
361,sharkan,57.2989,53.8712,-2.11,96,91,3.52,RU,1733104191
362,xianju,28.85,120.7333,18.9,54,0,0.16,CN,1733104192
363,manokwari,-0.8667,134.0833,29.59,64,100,2.38,ID,1733104193
364,inyonga,-6.7167,32.0667,18.11,97,100,1.15,TZ,1733104194
365,lengshuitan,26.4111,111.5956,19.33,43,0,0.24,CN,1733104140
366,lata,40.1629,-8.3327,11.95,84,84,1.43,PT,1733104197
367,licheng,23.2955,113.8284,21.37,47,4,1.01,CN,1733104132
368,kalkaman,51.9525,76.0211,-12.91,95,69,3.23,KZ,1733104199
369,homer,59.6425,-151.5483,-2.96,72,100,7.6,US,1733104200
370,chajari,-30.7505,-57.9796,18.57,89,100,3.97,AR,1733104202
371,grande prairie,55.1667,-118.8027,-17.9,78,100,1.54,CA,1733104203
372,broken hill,-31.95,141.4333,29.92,29,100,6.98,AU,1733104204
373,ibirataia,-14.0669,-39.6406,20.66,99,98,0.71,BR,1733104205
374,cholpon-ata,42.6494,77.0823,-2.03,68,27,3.64,KG,1733104207
375,katsuren-haebaru,26.3369,127.8719,22.49,61,40,2.57,JP,1733104012
376,tadotsu,34.275,133.75,13.63,77,4,0.81,JP,1733104209
377,olyokminsk,60.3736,120.4264,-22.78,95,100,1.62,RU,1733104210
378,silver city,32.7701,-108.2803,10.47,34,0,0.0,US,1733104211
379,zemio,5.0314,25.1361,19.73,52,5,1.16,CF,1733104213
380,wuwei,37.9281,102.6414,-0.4,51,100,0.63,CN,1733104214
381,talcahuano,-36.7167,-73.1167,13.82,72,0,6.17,CL,1733104215
382,tevriz,57.509,72.4042,-9.4,96,97,3.0,RU,1733104216
383,nova vicosa,-17.8919,-39.3719,25.25,87,100,4.31,BR,1733104218
384,galle,6.0367,80.217,27.74,83,74,0.45,LK,1733104090
385,bani walid,31.7566,13.9942,12.15,67,0,4.27,LY,1733104220
386,kavaratti,10.5669,72.642,27.6,65,66,6.54,IN,1733104221
387,revelstoke,50.9832,-118.2023,2.01,93,100,1.03,CA,1733104223
388,bornu yassu,12.2774,12.5552,16.02,52,84,3.72,NG,1733104224
389,banda aceh,5.5577,95.3222,26.43,82,100,3.32,ID,1733104225
390,nyaunglebin,17.95,96.7333,23.59,85,98,2.15,MM,1733104226
391,mahina,-17.5065,-149.489,29.87,74,75,7.2,PF,1733104227
392,mkushi,-13.6202,29.3939,15.52,72,14,1.33,ZM,1733104229
393,oboyan',51.2098,36.2792,-1.93,93,82,2.04,RU,1733104230
394,mar del plata,-38.0023,-57.5575,13.33,86,0,3.13,AR,1733104231
395,fort mcmurray,56.7268,-111.381,-22.27,77,100,3.09,CA,1733104232
396,totness,5.8833,-56.3167,25.69,88,74,5.6,SR,1733104234
397,solnechniy,56.5438,48.4044,0.09,98,100,2.9,RU,1733104235
398,yamada,39.4667,141.95,8.32,48,1,1.18,JP,1733104124
399,toba,34.4833,136.85,13.22,65,0,3.65,JP,1733104237
400,nyandoma,61.669,40.1991,2.14,98,100,5.41,RU,1733104238
401,fredericton,45.9454,-66.6656,-0.53,74,100,1.54,CA,1733104240
402,mihalgazi,40.0262,30.5771,4.78,72,65,2.63,TR,1733104241
403,ketchikan,55.3422,-131.6461,7.33,93,100,6.69,US,1733104242
404,nema,57.5067,50.5011,0.5,98,100,3.02,RU,1733104243
405,biankouma,7.7391,-7.6138,19.28,42,4,0.36,CI,1733104245
406,new amsterdam,6.25,-57.5167,25.1,88,96,2.54,GY,1733104246
407,hawaiian paradise park,19.5933,-154.9731,24.9,76,100,4.12,US,1733104247
408,rawlins,41.7911,-107.2387,-0.06,43,0,4.12,US,1733104248
409,bardai,11.65,7.2333,16.78,25,56,4.62,NG,1733104249
410,dhidhdhoo,6.8833,73.1,28.12,63,52,8.69,MV,1733104251
411,antonio enes,-16.2325,39.9086,23.5,76,4,3.33,MZ,1733104224
412,san luis de la loma,17.2706,-100.8939,25.01,84,0,1.78,MX,1733104253
413,bodaybo,57.8506,114.1933,-20.67,96,100,0.7,RU,1733104254
414,boende,-0.2167,20.8667,22.17,86,99,0.48,CD,1733104256
415,maych'ew,12.7875,39.5422,9.4,80,43,1.34,ET,1733104257
416,laojunmiao,39.8333,97.7333,-5.38,51,100,1.95,CN,1733104258
417,esmeraldas,-19.7625,-44.3139,19.99,93,100,1.72,BR,1733104259
418,zelenogorskiy,55.0333,87.0,-12.07,93,100,0.54,RU,1733104260
419,strezhevoy,60.7333,77.5889,-10.76,96,100,3.26,RU,1733104262
420,olavarria,-36.8927,-60.3225,14.45,59,16,1.34,AR,1733104263
421,karatuzskoye,53.6072,92.8667,-7.34,96,100,1.09,RU,1733104264
422,ciudad lazaro cardenas,17.9583,-102.2,25.34,85,0,1.6,MX,1733104265
423,caleta de carquin,-11.0925,-77.6267,19.67,90,100,3.53,PE,1733104267
424,ebute ikorodu,6.6009,3.4882,25.18,78,21,1.03,NG,1733104249
425,selkirk,50.1436,-96.8845,-9.34,93,100,1.34,CA,1733104269
426,villamontes,-21.25,-63.5,24.9,61,100,1.48,BO,1733104270
427,rakops,-21.0167,24.3333,24.91,18,0,4.54,BW,1733104271
428,aral,40.5156,81.2636,-0.64,45,91,0.18,CN,1733104273
429,longuenesse,50.734,2.2352,10.64,92,100,6.4,FR,1733104274
430,argo,37.6333,22.7333,10.41,88,100,1.79,GR,1733104275
431,korsakov,46.6328,142.7813,-3.09,70,24,1.87,RU,1733104276
432,kailua-kona,19.6406,-155.9956,28.28,49,0,3.6,US,1733104278
433,cidade velha,14.9167,-23.6167,24.26,78,99,9.77,CV,1733104279
434,mamuju,-2.6748,118.8885,29.22,70,100,2.45,ID,1733104280
435,mount isa,-20.7333,139.5,33.87,55,75,6.17,AU,1733104281
436,hobyo,5.3505,48.5268,25.77,70,18,7.96,SO,1733104282
437,naracoorte,-36.9579,140.7383,30.28,20,99,7.06,AU,1733104284
438,chernyshevsk,52.5243,117.0174,-20.02,85,100,1.41,RU,1733104285
439,curumani,9.1999,-73.5427,24.89,92,79,2.25,CO,1733104286
440,karachi,24.9056,67.0822,18.9,52,0,2.06,PK,1733103751
441,nueva gerona,21.8833,-82.8,22.55,69,1,7.38,CU,1733104289
442,preobrazheniye,42.9019,133.9064,5.21,95,100,3.79,RU,1733104290
443,chonchi,-42.6128,-73.8092,8.95,84,23,1.68,CL,1733104291
444,porto seguro,-16.4497,-39.0647,25.29,94,40,2.06,BR,1733104294
445,robore,-18.3333,-59.75,28.51,61,71,3.56,BO,1733104295
446,camana,-16.6228,-72.7111,19.77,89,100,3.31,PE,1733104296
447,bafq,31.6128,55.4107,3.86,41,7,1.56,IR,1733104297
448,road town,18.4167,-64.6167,28.02,78,20,3.09,VG,1733104108
449,shilin,24.8188,103.3324,11.36,82,0,2.16,CN,1733104300
450,gamba,-2.65,10.0,25.31,87,99,3.02,GA,1733104301
451,miguel ahumada,30.6167,-106.5167,16.21,29,3,3.23,MX,1733104303
452,rongelap,11.1635,166.8941,27.99,79,21,9.34,MH,1733104306
453,mamburao,13.25,120.6667,25.19,92,100,1.94,PH,1733104307
454,rifle,39.5347,-107.7831,-2.67,68,0,0.0,US,1733104308
455,kosan,38.8558,127.4181,8.72,83,100,4.79,KP,1733104309
456,pimentel,-6.8367,-79.9342,21.16,78,0,7.72,PE,1733104310
457,andergrove,-21.0833,149.1833,27.39,72,84,4.31,AU,1733104312
458,colombo,6.9319,79.8478,24.97,77,33,5.71,LK,1733104114
459,vodnyy,63.5046,53.4095,-2.52,97,100,2.27,RU,1733104314
460,dunedin,-45.8742,170.5036,17.11,73,100,1.79,NZ,1733104155
461,sao vicente,-23.9631,-46.3919,23.32,26,2,0.93,BR,1733104317
462,dapa,9.7594,126.0531,28.56,77,25,5.01,PH,1733104318
463,bluefield,37.2698,-81.2223,-3.95,83,0,3.6,US,1733104319
464,bayanhongor,46.7167,100.1167,-22.35,93,44,0.73,MN,1733104320
465,salavan,15.7167,106.4167,25.69,62,36,1.42,LA,1733104321
466,chhoti sadri,24.3833,74.7,13.81,48,0,2.61,IN,1733104323
467,keflavik,64.0049,-22.5624,-8.76,79,40,3.09,IS,1733104324
468,taoudenni,22.6783,-3.9836,19.43,20,100,4.85,ML,1733104325
469,yashkul',46.1711,45.3435,1.81,68,98,3.56,RU,1733104326
470,san jose de jachal,-30.2406,-68.7469,19.01,32,0,2.27,AR,1733104328
471,beaufort west,-32.3567,22.583,15.44,75,97,3.59,ZA,1733104329
472,kyren,51.6828,102.1408,-15.61,75,27,0.32,RU,1733104330
473,choele choel,-39.2667,-65.6833,12.89,49,0,7.2,AR,1733104331
474,lodwar,3.1191,35.5973,27.11,51,27,2.54,KE,1733104333
475,west hattiesburg,31.3191,-89.3751,6.72,83,0,1.54,US,1733104335
476,westport,41.1415,-73.3579,-1.94,58,0,0.89,US,1733104337
477,island harbour,50.724,-1.2758,11.64,93,0,2.24,GB,1733104339
478,xai-xai,-25.0519,33.6442,18.46,85,2,2.79,MZ,1733104340
479,le port,-20.9373,55.2919,21.61,88,82,1.79,RE,1733104342
480,guerrero negro,27.9769,-114.0611,16.97,80,1,4.69,MX,1733104343
481,iquitos,-3.7481,-73.2472,26.02,89,0,0.0,PE,1733104344
482,daoukro,7.0591,-3.9631,20.89,51,13,0.8,CI,1733104345
483,vila do maio,15.1333,-23.2167,24.72,74,97,4.95,CV,1733104347
484,coahuayana de hidalgo,18.7,-103.6583,23.42,91,3,0.51,MX,1733104348
485,hedaru,-4.5,37.9,21.05,91,97,0.85,TZ,1733104204
486,scottburgh,-30.2867,30.7532,20.67,89,100,4.58,ZA,1733104350
487,turkestan,43.3333,68.25,4.67,85,100,1.41,KZ,1733104351
488,crane,31.3974,-102.3501,13.95,44,0,3.95,US,1733104353
489,sanand,22.9833,72.3833,16.12,36,0,4.11,IN,1733104354
490,am timan,11.0297,20.2827,20.03,22,43,2.64,TD,1733104355
491,ghat,24.9647,10.1728,13.68,29,0,1.65,LY,1733104356
492,shimoda,34.6667,138.95,15.05,57,0,2.39,JP,1733104359
493,launceston,-41.45,147.1667,20.8,68,100,8.23,AU,1733103830
494,longgang,37.6508,120.3286,4.58,61,99,11.75,CN,1733104361
495,charlottetown,46.2352,-63.1267,1.84,74,75,3.6,CA,1733104363
496,aswan,24.0934,32.907,14.61,41,0,2.06,EG,1733104146
497,santana,-0.0583,-51.1817,28.1,78,0,4.63,BR,1733104365
498,srivardhan,18.0333,73.0167,23.92,66,100,2.14,IN,1733104366
499,carutapera,-1.195,-46.02,26.0,82,0,2.74,BR,1733104368
500,barro alto,-11.7608,-41.9117,22.52,60,14,1.34,BR,1733104369
501,utrik,11.2278,169.8474,27.8,73,62,9.46,MH,1733104370
502,alaghsas,17.0187,8.0168,16.92,21,5,4.68,NE,1733104371
503,tucupita,9.0622,-62.051,24.83,83,12,2.57,VE,1733104374
504,forster,-32.1667,152.5167,28.54,71,0,5.6,AU,1733104375
505,ola,59.5833,151.2833,-2.91,81,88,5.39,RU,1733104376
506,hargeysa,9.56,44.065,15.48,84,12,3.88,SO,1733104378
507,zhanaozen,43.3,52.8,1.01,71,100,3.54,KZ,1733104379
508,selfoss,63.9331,-20.9971,-11.09,60,0,4.05,IS,1733104380
509,mumford,5.2618,-0.759,25.95,80,0,1.89,GH,1733104312
510,orapa,-21.2833,25.3667,22.55,26,0,4.33,BW,1733104384
511,san cristobal,7.7669,-72.225,23.74,91,64,0.78,VE,1733104385
512,marat,25.0701,45.4615,14.1,40,58,4.51,SA,1733104386
513,englewood,39.6478,-104.9878,3.14,49,20,4.12,US,1733104387
514,port saint john's,-31.6229,29.5448,20.55,94,100,3.93,ZA,1733104389
515,cannonvale,-20.2833,148.7,25.66,72,99,4.3,AU,1733104390
516,jiangmen,22.5833,113.0833,22.1,57,6,2.24,CN,1733104140
517,cumana,10.4635,-64.1775,27.2,75,15,5.05,VE,1733104392
518,butajira,8.1167,38.3667,11.93,63,87,2.16,ET,1733104393
519,souillac,-20.5167,57.5167,23.21,88,40,1.54,MU,1733104395
520,ust-tsilma,65.441,52.1498,-4.01,96,100,2.5,RU,1733104396
521,singkawang,0.9,109.0,28.9,72,96,2.24,ID,1733104340
522,tyukhtet,56.5389,89.3011,-11.39,88,100,3.03,RU,1733104398
523,yermentau,51.6214,73.1069,-14.63,98,79,4.05,KZ,1733104400
524,la'ie,21.6477,-157.9253,26.18,69,59,0.45,US,1733104401
525,ust'-kut,56.7938,105.7672,-34.27,100,65,0.98,RU,1733104403
526,oleksandriya,48.6696,33.1159,-1.92,89,17,1.68,UA,1733104405
527,ambon,-3.6954,128.1814,27.71,100,40,1.54,ID,1733104406
528,shalqar,47.8333,59.6,-3.93,86,11,2.78,KZ,1733104407
529,biltine,14.5333,20.9167,17.47,25,49,3.92,TD,1733104408
530,kontcha,7.9667,12.2333,18.38,41,95,0.45,CM,1733104410
531,nizhneudinsk,54.9076,99.0276,-15.14,85,16,1.7,RU,1733104411
532,kingscliff,-28.2667,153.5667,26.89,83,46,5.66,AU,1733104412
533,katabu,-4.9333,122.5167,30.83,61,96,1.66,ID,1733104413
534,aksuat,48.7167,83.7,-0.79,99,100,2.01,KZ,1733104414
535,dehui,44.5333,125.7,-11.19,57,0,4.49,CN,1733104233
536,peace river,56.2501,-117.286,-17.83,78,100,4.12,CA,1733104417
537,villa gesell,-37.2639,-56.973,14.46,76,0,9.69,AR,1733104418
538,mari-turek,56.7895,49.6235,0.45,98,100,3.71,RU,1733104419
539,crucecita,-28.95,-58.9833,18.32,84,100,7.42,AR,1733104421
540,amboasary,-25.0333,46.3833,20.54,87,7,1.55,MG,1733104422
541,poronaysk,49.2167,143.1167,-3.08,76,96,0.27,RU,1733104423
542,woodland park,40.8898,-74.1949,-1.61,52,0,2.57,US,1733104424
543,cabo san lucas,22.8909,-109.9124,24.31,86,0,2.57,MX,1733104425
544,necochea,-38.5473,-58.7368,11.89,86,26,8.69,AR,1733104176
545,sinop,41.7711,34.8709,1.14,83,7,3.97,TR,1733104428
546,tamale,9.4008,-0.8393,24.47,30,6,2.86,GH,1733104429
547,choma,-16.8065,26.9531,17.91,36,0,2.03,ZM,1733104430
548,abong mbang,3.9833,13.1833,20.54,53,61,1.07,CM,1733104432
549,ocotal,13.6321,-86.4752,21.68,97,100,1.91,NI,1733104338
550,scone,56.4194,-3.4051,8.24,78,100,0.45,GB,1733104434
551,tinogasta,-28.0632,-67.5649,23.41,50,0,4.57,AR,1733104435
552,diego de almagro,-26.3667,-70.05,18.87,44,0,0.85,CL,1733104436
553,cestos city,5.46,-9.5828,25.66,83,17,1.22,LR,1733104438
554,blair,41.5444,-96.125,-3.17,67,100,1.54,US,1733104439
555,santa marta,11.2408,-74.199,27.31,77,40,6.26,CO,1733104440
556,shalya,57.2471,58.7298,-3.57,94,99,4.44,RU,1733104441
557,hualien city,23.9769,121.6044,23.51,68,44,1.73,TW,1733104294
